City_ID,City,Country,Lat,Lng,Max Temp,Humidity,Cloudiness,Wind Speed,Current Description
0,Lewiston,US,44.1003,-70.2148,58.8,76,90,3.44,overcast clouds
1,Kalmunai,LK,7.4167,81.8167,80.82,78,78,2.75,light rain
2,Bluff,NZ,-46.6,168.3333,47.8,82,90,20.74,overcast clouds
3,Inhambane,MZ,-23.865,35.3833,75.18,73,20,0.0,few clouds
4,Pangai,TO,-19.8,-174.35,77.11,69,75,13.8,broken clouds
5,Avarua,CK,-21.2078,-159.775,68.05,100,5,2.3,clear sky
6,Port Alfred,ZA,-33.5906,26.891,65.68,90,100,19.42,light rain
7,Iskateley,RU,67.6803,53.1512,34.84,78,100,5.66,overcast clouds
8,Taoudenni,ML,22.6783,-3.9836,106.29,9,22,15.39,few clouds
9,Nikolskoye,RU,59.7035,30.7861,45.79,85,2,4.59,clear sky
10,Marsh Harbour,BS,26.5412,-77.0636,81.45,70,6,13.29,clear sky
11,Rio Grande,BR,-32.035,-52.0986,68.11,77,89,24.02,overcast clouds
12,Vanimo,PG,-2.6741,141.3028,77.2,89,100,1.5,overcast clouds
13,Kodiak,US,57.79,-152.4072,45.91,76,90,12.66,light rain
14,Datong,CN,40.0936,113.2914,54.61,39,1,6.51,clear sky
15,Puerto Armuelles,PA,8.2833,-82.8667,86.83,75,32,7.31,scattered clouds
16,Busselton,AU,-33.65,115.3333,60.04,88,29,15.1,light rain
17,Noumea,NC,-22.2763,166.4572,73.99,99,47,8.86,scattered clouds
18,Biak,ID,-0.9131,122.8766,76.44,85,61,5.99,broken clouds
19,Tual,ID,-5.6667,132.75,81.59,83,84,12.53,broken clouds
20,Arys,KZ,42.4252,68.795,55.62,38,0,6.87,clear sky
21,Georgetown,MY,5.4112,100.3354,82.33,92,40,0.0,scattered clouds
22,Richards Bay,ZA,-28.783,32.0377,67.59,76,92,9.62,overcast clouds
23,Teknaf,BD,20.8624,92.3058,78.89,88,15,4.88,few clouds
24,Kapuskasing,CA,49.4169,-82.4331,55.49,62,20,2.3,few clouds
25,Arraial Do Cabo,BR,-22.9661,-42.0278,76.96,78,20,16.11,few clouds
26,Guadalupe Y Calvo,MX,26.1,-106.9667,65.84,29,0,6.91,clear sky
27,Ushuaia,AR,-54.8,-68.3,46.02,49,40,10.36,light rain
28,Adelanto,US,34.5828,-117.4092,79.59,17,0,12.1,clear sky
29,Qaanaaq,GL,77.484,-69.3632,26.69,74,100,11.25,overcast clouds
30,Lisakovsk,KZ,52.5369,62.4936,37.4,65,75,6.2,broken clouds
31,Jamestown,US,42.097,-79.2353,59.34,73,90,5.99,overcast clouds
32,Rikitea,PF,-23.1203,-134.9692,72.68,68,46,21.52,scattered clouds
33,Severo-Kurilsk,RU,50.6789,156.125,47.34,94,100,19.19,light rain
34,San Andres,CO,12.5847,-81.7006,87.82,70,40,9.22,scattered clouds
35,Puerto Ayora,EC,-0.7393,-90.3518,76.96,80,80,8.99,broken clouds
36,Nanortalik,GL,60.1432,-45.2371,37.02,53,4,8.12,clear sky
37,Onega,RU,63.9061,38.1404,43.63,93,68,4.16,broken clouds
38,Bredasdorp,ZA,-34.5322,20.0403,60.12,77,63,12.66,broken clouds
39,Mastic Beach,US,40.7668,-72.8521,66.24,61,75,3.0,broken clouds
40,San Carlos De Bariloche,AR,-41.1456,-71.3082,44.35,76,75,29.93,broken clouds
41,Fort Frances,CA,48.5999,-93.4003,75.16,67,1,0.0,clear sky
42,Pangnirtung,CA,66.1451,-65.7125,30.2,100,90,9.22,overcast clouds
43,Havre-Saint-Pierre,CA,50.2334,-63.5986,44.96,87,90,20.71,overcast clouds
44,Punta Arenas,CL,-53.15,-70.9167,46.42,49,75,24.16,broken clouds
45,Hobart,AU,-42.8794,147.3294,54.1,95,90,1.01,mist
46,Gaoual,GN,11.75,-13.2,82.24,83,27,3.0,light rain
47,Albany,US,42.6001,-73.9662,59.74,66,59,7.65,broken clouds
48,Gallup,US,35.5281,-108.7426,52.56,86,90,1.99,overcast clouds
49,Quesnel,CA,52.9999,-122.5029,57.7,54,1,12.66,clear sky
50,Mar Del Plata,AR,-38.0023,-57.5575,60.01,63,90,5.01,moderate rain
51,Bayji,IQ,34.9311,43.487,83.35,26,0,8.88,clear sky
52,Hermanus,ZA,-34.4187,19.2345,65.89,89,21,13.89,few clouds
53,Los Llanos De Aridane,ES,28.6585,-17.9182,74.12,79,75,19.57,broken clouds
54,Shakawe,BW,-18.3667,21.85,81.88,24,64,2.93,broken clouds
55,Khatanga,RU,71.9667,102.5,29.77,98,100,8.03,overcast clouds
56,Buraydah,SA,26.326,43.975,90.05,12,1,3.96,clear sky
57,Iquique,CL,-20.2208,-70.1431,66.24,67,4,4.18,clear sky
58,Touros,BR,-5.1989,-35.4608,86.9,66,19,15.68,few clouds
59,Vaini,TO,-21.2,-175.2,68.16,94,90,4.61,light rain
60,Dom Pedrito,BR,-30.9828,-54.6731,71.15,84,100,11.95,moderate rain
61,Olafsvik,IS,64.8945,-23.7142,44.6,72,100,25.39,overcast clouds
62,Sola,VU,-13.8833,167.55,79.54,81,87,22.7,light rain
63,Mataura,NZ,-46.1927,168.8643,47.48,89,100,4.23,overcast clouds
64,Coihueco,CL,-36.6167,-71.8333,56.14,62,75,5.75,broken clouds
65,Saint-Philippe,RE,-21.3585,55.7679,72.99,80,42,12.26,scattered clouds
66,Ayagoz,KZ,47.9714,80.4392,51.73,36,100,20.67,light rain
67,Ballina,AU,-28.8667,153.5667,64.36,88,40,10.36,light rain
68,Bambous Virieux,MU,-20.3428,57.7575,72.21,78,40,13.8,scattered clouds
69,Ribeira Grande,PT,38.5167,-28.7,77.4,78,20,9.22,mist
70,Arlit,NE,18.7369,7.3853,94.91,10,37,12.21,scattered clouds
71,Lompoc,US,34.6391,-120.4579,88.12,32,1,5.75,clear sky
72,Saint George,US,37.1041,-113.5841,73.87,21,1,3.0,clear sky
73,Cidreira,BR,-30.1811,-50.2056,66.34,75,84,23.89,broken clouds
74,Comodoro Rivadavia,AR,-45.8667,-67.5,64.26,19,0,26.46,clear sky
75,Udachnyy,RU,66.4167,112.4,30.72,61,53,4.47,broken clouds
76,Adrar,MR,20.5022,-10.0711,99.25,7,0,7.63,clear sky
77,Castro,BR,-24.7911,-50.0119,80.31,43,32,6.93,scattered clouds
78,Atuona,PF,-9.8,-139.0333,77.92,72,40,20.74,scattered clouds
79,Kochki,RU,54.3358,80.4806,38.77,98,100,6.71,overcast clouds
80,Shirokiy,RU,49.758,129.523,36.5,87,59,7.05,broken clouds
81,Pangoa,PE,-12.1167,-73.0,90.14,39,73,6.46,broken clouds
82,Siyabuswa,ZA,-25.1132,29.0445,65.93,67,9,16.06,clear sky
83,Mahebourg,MU,-20.4081,57.7,72.25,78,40,13.8,scattered clouds
84,Chuy,UY,-33.6971,-53.4616,63.52,76,85,16.64,moderate rain
85,San Cristobal,VE,7.7669,-72.225,77.18,66,86,4.05,overcast clouds
86,Tornio,FI,65.8481,24.1466,46.42,85,100,7.14,overcast clouds
87,Bengkulu,ID,-3.8004,102.2655,75.49,87,98,3.24,overcast clouds
88,Treviglio,IT,45.5238,9.5895,71.65,68,20,2.3,few clouds
89,Acushnet,US,41.6807,-70.9078,63.28,62,75,5.99,broken clouds
90,North Platte,US,41.1239,-100.7654,62.49,66,90,5.99,overcast clouds
91,Neftcala,AZ,39.3742,49.2472,64.56,73,100,24.96,overcast clouds
92,Half Moon Bay,US,37.4636,-122.4286,81.14,59,1,0.0,clear sky
93,Hithadhoo,MV,-0.6,73.0833,82.27,71,24,2.48,few clouds
94,Boyolangu,ID,-8.1181,111.8935,74.37,93,49,5.26,scattered clouds
95,Pisco,PE,-13.7,-76.2167,67.01,77,0,10.36,clear sky
96,Meulaboh,ID,4.1363,96.1285,76.5,90,100,6.87,light rain
97,Hualmay,PE,-11.0964,-77.6139,68.85,72,46,11.63,scattered clouds
98,Cherskiy,RU,68.75,161.3,9.5,99,93,5.21,overcast clouds
99,Dikson,RU,73.5069,80.5464,33.73,84,100,24.0,overcast clouds
100,College,US,64.8569,-147.8028,26.8,81,75,4.61,broken clouds
101,Faanui,PF,-16.4833,-151.75,79.48,70,10,18.23,clear sky
102,Tiksi,RU,71.6872,128.8694,30.78,74,100,4.92,overcast clouds
103,Barahona,DO,18.2085,-71.1008,89.42,66,20,11.5,few clouds
104,Bilma,NE,18.6853,12.9164,91.49,7,0,7.9,clear sky
105,Verkhnyaya Inta,RU,65.9811,60.3094,36.09,74,83,5.97,broken clouds
106,Klang,MY,3.0333,101.45,80.74,83,20,1.14,few clouds
107,Miri,MY,4.4148,114.0089,78.94,89,40,1.14,scattered clouds
108,Neryungri,RU,56.6709,124.6491,19.83,98,99,3.76,overcast clouds
109,Barrow,US,71.2906,-156.7887,28.42,74,90,8.05,haze
110,Lorengau,PG,-2.0226,147.2712,80.83,80,99,8.48,heavy intensity rain
111,Lagoa,PT,39.05,-27.9833,71.82,79,14,5.75,few clouds
112,Codrington,AU,-38.2667,141.9667,54.93,94,100,18.54,overcast clouds
113,Yinchuan,CN,38.4681,106.2731,68.59,18,38,3.13,scattered clouds
114,Kahului,US,20.8947,-156.47,75.22,91,40,10.36,light rain
115,Kapaa,US,22.0752,-159.319,76.98,81,75,13.8,light rain
116,Saskylakh,RU,71.9167,114.0833,19.49,94,98,2.73,overcast clouds
117,Cape Town,ZA,-33.9258,18.4232,66.61,59,0,12.66,clear sky
118,Koumac,NC,-20.5667,164.2833,69.67,86,14,5.26,few clouds
119,Rio Gallegos,AR,-51.6226,-69.2181,51.85,28,40,23.02,scattered clouds
120,Dunedin,NZ,-45.8742,170.5036,46.8,74,44,11.23,scattered clouds
121,Fort Nelson,CA,58.8053,-122.7002,36.99,100,90,4.61,mist
122,Sao Jose Da Coroa Grande,BR,-8.8978,-35.1478,78.89,78,39,9.55,scattered clouds
123,Tiarei,PF,-17.5333,-149.3333,78.82,76,10,18.43,clear sky
124,Masunga,BW,-20.6246,27.4488,75.72,39,85,9.42,overcast clouds
125,Warah,PK,27.4481,67.7978,84.47,69,80,11.39,broken clouds
126,Chokurdakh,RU,70.6333,147.9167,14.13,92,29,9.37,scattered clouds
127,Filadelfia,US,39.9523,-75.1638,71.19,49,40,4.0,scattered clouds
128,Holme,DK,56.1138,10.1725,52.75,84,99,14.45,overcast clouds
129,Ostrovnoy,RU,68.0531,39.5131,43.07,87,75,3.06,broken clouds
130,Butaritari,KI,3.0707,172.7902,81.73,74,99,12.08,overcast clouds
131,Vila,PT,42.0304,-8.1588,63.34,53,37,2.57,scattered clouds
132,Bardiyah,LY,31.7561,25.0865,75.11,61,0,17.49,clear sky
133,Songjianghe,CN,42.1859,127.479,48.9,91,100,2.77,overcast clouds
134,East London,ZA,-33.0153,27.9116,65.34,94,75,11.5,light rain
135,Upernavik,GL,72.7868,-56.1549,32.7,77,100,10.22,overcast clouds
136,Nador,MA,35.174,-2.9287,75.27,83,75,4.61,broken clouds
137,Uruzgan,AF,32.8333,66.0,70.38,19,5,1.07,clear sky
138,Jiwani,PK,25.05,61.7417,85.86,68,67,1.57,broken clouds
139,Martinho Campos,BR,-19.3317,-45.2369,91.02,28,44,2.13,scattered clouds
140,Kondoa,TZ,-4.9,35.7833,69.28,60,86,11.99,overcast clouds
141,Kruisfontein,ZA,-34.0033,24.7314,59.88,98,100,15.59,light rain
142,Altamira,BR,-3.2033,-52.2064,91.49,55,75,5.75,broken clouds
143,Hay River,CA,60.8156,-115.7999,42.78,87,75,3.44,broken clouds
144,Paragominas,BR,-2.9667,-47.4833,92.84,39,57,2.19,broken clouds
145,Sibolga,ID,1.7427,98.7792,76.14,88,100,1.45,overcast clouds
146,Yumen,CN,40.2833,97.2,59.09,26,62,7.65,broken clouds
147,Tame,CO,6.461,-71.73,78.13,86,98,1.25,overcast clouds
148,Kaitangata,NZ,-46.2817,169.8464,50.94,66,93,11.79,overcast clouds
149,Ilhabela,BR,-23.7781,-45.3581,72.64,76,54,5.59,broken clouds
150,Tuktoyaktuk,CA,69.4541,-133.0374,28.4,86,75,11.5,broken clouds
151,Kavaratti,IN,10.5669,72.642,81.61,80,43,13.73,scattered clouds
152,Belmonte,BR,-15.8631,-38.8828,82.9,62,34,10.92,scattered clouds
153,Mount Gambier,AU,-37.8333,140.7667,53.51,94,90,12.66,overcast clouds
154,Souillac,MU,-20.5167,57.5167,72.36,78,40,13.8,scattered clouds
155,Alyangula,AU,-13.8483,136.4192,76.87,94,75,4.61,broken clouds
156,Jacareacanga,BR,-6.2222,-57.7528,97.11,44,0,6.91,clear sky
157,Shingu,JP,33.7333,135.9833,71.2,91,100,10.09,moderate rain
158,Manokwari,ID,-0.8667,134.0833,78.82,73,89,4.12,overcast clouds
159,Grafton,US,42.207,-71.6856,60.73,59,90,1.01,overcast clouds
160,Flin Flon,CA,54.7682,-101.865,58.84,72,1,4.61,clear sky
161,Alofi,NU,-19.0595,-169.9187,73.29,88,80,10.36,broken clouds
162,Abbeville,FR,50.1,1.8333,58.41,60,95,8.05,overcast clouds
163,Lulea,SE,65.5842,22.1547,48.27,93,90,5.75,overcast clouds
164,Ponta Do Sol,PT,32.6667,-17.1,77.72,68,3,7.63,clear sky
165,La Palma,US,33.8464,-118.0467,90.48,53,1,1.01,haze
166,Yellowknife,CA,62.456,-114.3525,44.42,100,90,3.0,mist
167,Platanos,GR,37.6667,21.6167,73.96,59,89,3.02,overcast clouds
168,Guerrero Negro,MX,27.9769,-114.0611,72.48,57,0,9.24,clear sky
169,Jever,DE,53.5833,7.9,55.63,76,75,13.8,broken clouds
170,Berberati,CF,4.2612,15.7922,70.54,96,92,0.36,moderate rain
171,Westport,US,41.1415,-73.3579,65.95,58,75,1.01,broken clouds
172,Canon City,US,38.441,-105.2424,62.96,68,90,1.99,overcast clouds
173,Longyearbyen,SJ,78.2186,15.6401,31.84,93,40,5.75,scattered clouds
174,Zverinogolovskoye,RU,54.4586,64.8542,35.73,81,92,8.21,overcast clouds
175,Minsk,BY,53.9,27.5667,40.75,82,11,7.78,few clouds
176,Whitley Bay,GB,55.0397,-1.4471,59.81,91,40,6.91,scattered clouds
177,Norman Wells,CA,65.282,-126.8329,30.24,93,90,0.0,overcast clouds
178,Eugene,US,44.0521,-123.0867,66.81,66,75,1.01,broken clouds
179,Northam,GB,51.0333,-4.2167,62.38,96,100,18.07,overcast clouds
180,High Level,CA,58.5169,-117.136,42.91,93,75,6.91,light rain
181,Bandarbeyla,SO,9.4942,50.8122,80.08,75,69,12.26,broken clouds
182,Port Elizabeth,ZA,-33.918,25.5701,62.1,100,90,16.11,light rain
183,Clyde River,CA,70.4692,-68.5914,36.73,68,100,6.64,overcast clouds
184,Vila Velha,BR,-20.3297,-40.2925,76.95,69,90,16.11,overcast clouds
185,Vardo,NO,70.3705,31.1107,44.8,81,75,3.44,broken clouds
186,Kavieng,PG,-2.5744,150.7967,82.04,81,97,13.78,moderate rain
187,Dicabisagan,PH,17.0818,122.4157,78.19,89,98,3.56,overcast clouds
188,Mugla,TR,37.2303,28.3557,66.87,45,3,5.3,clear sky
189,Liverpool,GB,53.4106,-2.9779,59.97,90,75,1.99,broken clouds
190,Cayenne,GF,4.9333,-52.3333,87.84,78,75,4.0,broken clouds
191,Liedekerke,BE,50.8667,4.0833,57.94,72,100,11.86,overcast clouds
192,Hofn,IS,64.2539,-15.2082,43.88,84,100,24.9,light rain
193,Bachaquero,VE,9.9694,-71.1494,83.08,75,97,5.79,overcast clouds
194,Bathsheba,BB,13.2167,-59.5167,83.01,89,40,11.5,scattered clouds
195,Bethel,US,41.3712,-73.414,63.7,63,75,10.36,broken clouds
196,Acarau,BR,-2.8856,-40.12,85.91,63,23,20.11,few clouds
197,Padang,ID,-0.9492,100.3543,75.25,80,100,2.64,light rain
198,Maarianhamina,AX,60.0973,19.9348,51.66,87,90,11.5,overcast clouds
199,Mikumi,TZ,-7.4041,36.9831,78.39,49,96,6.73,overcast clouds
200,Fortuna,US,40.5982,-124.1573,62.98,77,1,0.0,clear sky
201,Hilo,US,19.7297,-155.09,73.8,94,90,6.91,heavy intensity rain
202,Talara,PE,-4.5772,-81.2719,79.56,53,0,11.5,clear sky
203,Wajir,KE,1.7471,40.0573,84.02,52,77,18.9,broken clouds
204,Colesberg,ZA,-30.72,25.0972,68.36,18,68,8.01,broken clouds
205,Tsimlyansk,RU,47.6461,42.1019,43.72,49,5,12.5,clear sky
206,Sao Filipe,CV,14.8961,-24.4956,80.62,77,65,9.71,broken clouds
207,Komsomolskiy,UZ,40.4272,71.7189,65.12,59,99,4.61,overcast clouds
208,Sinnamary,GF,5.3833,-52.95,84.72,69,48,9.37,scattered clouds
209,Matamoros,MX,25.5333,-103.25,83.1,42,12,2.15,few clouds
210,Nisia Floresta,BR,-6.0911,-35.2086,86.81,57,32,13.42,scattered clouds
211,Warmbad,NA,-28.45,18.7333,70.07,31,93,20.76,overcast clouds
212,Port Lincoln,AU,-34.7333,135.8667,54.66,77,67,13.65,broken clouds
213,Mazatlan,MX,23.2167,-106.4167,87.91,76,7,4.0,clear sky
214,Akhaldaba,GE,41.654,42.1516,52.83,99,100,1.88,light rain
215,Churapcha,RU,62.0025,132.4325,33.31,96,100,6.53,light snow
216,Jaragua,BR,-15.7569,-49.3344,91.62,43,51,13.87,broken clouds
217,Flinders,AU,-34.5833,150.8552,61.38,87,100,1.01,light rain
218,Namatanai,PG,-3.6667,152.4333,79.75,84,77,7.36,light rain
219,Merauke,ID,-8.4667,140.3333,77.05,89,95,9.86,overcast clouds
220,Beeville,US,28.4008,-97.7483,92.28,74,75,5.75,broken clouds
221,Hasaki,JP,35.7333,140.8333,68.4,82,100,12.8,light rain
222,New Norfolk,AU,-42.7826,147.0587,53.74,72,100,1.01,light rain
223,Shenjiamen,CN,29.9576,122.298,72.52,78,1,6.96,clear sky
224,Guthrie,US,35.8789,-97.4253,67.95,54,62,13.8,light rain
225,Villa Altagracia,DO,18.673,-70.171,90.91,59,20,3.78,few clouds
226,Iqaluit,CA,63.7506,-68.5145,31.73,93,90,2.3,overcast clouds
227,San Patricio,US,28.017,-97.5169,91.49,57,25,10.09,scattered clouds
228,Hamilton,US,39.1834,-84.5333,79.05,49,75,1.99,broken clouds
229,Homer,US,59.6425,-151.5483,38.8,73,1,5.75,clear sky
230,Dedovichi,RU,57.5517,29.9502,41.7,85,30,6.02,scattered clouds
231,Baglung,NP,28.2719,83.5898,69.44,94,99,1.79,overcast clouds
232,Goure,NE,13.9835,10.2704,92.01,15,36,9.22,scattered clouds
233,Bilibino,RU,68.0546,166.4372,2.61,99,98,2.37,overcast clouds
234,Provideniya,RU,64.3833,-173.3,26.56,84,57,11.74,broken clouds
235,Ilulissat,GL,69.2167,-51.1,28.42,50,75,3.44,broken clouds
236,Sistranda,NO,63.7256,8.834,55.9,73,98,11.45,overcast clouds
237,Yukamenskoye,RU,57.8865,52.2416,43.54,97,100,5.84,overcast clouds
238,Santa Rosa,PH,14.3122,121.1114,80.58,89,80,3.18,broken clouds
239,Balabac,PH,7.9868,117.0645,80.82,80,100,2.86,overcast clouds
240,Mindelheim,DE,48.05,10.4833,51.57,81,0,3.44,clear sky
241,Beringovskiy,RU,63.05,179.3167,33.75,87,100,22.86,light rain
242,Cabo San Lucas,MX,22.8909,-109.9124,88.61,66,2,2.91,clear sky
243,Oranjemund,NA,-28.55,16.4333,57.76,92,17,4.25,few clouds
244,Namibe,AO,-15.1961,12.1522,62.83,84,25,8.79,scattered clouds
245,Pecos,US,31.4229,-103.4932,80.69,34,1,14.97,clear sky
246,Jalu,LY,29.0331,21.5482,85.12,39,31,8.75,scattered clouds
247,Gari,RU,59.4307,62.3497,40.32,95,100,9.13,light rain
248,Goderich,CA,43.7501,-81.7165,64.04,67,0,6.91,clear sky
249,Forbes,AU,-33.3833,148.0167,53.92,94,79,5.57,broken clouds
250,Faya,SA,18.3851,42.4509,69.91,58,89,3.06,overcast clouds
251,Lucapa,AO,-8.4192,20.7447,70.9,80,100,5.95,light rain
252,Lata,PT,40.1629,-8.3327,82.04,60,18,4.81,few clouds
253,Saldanha,ZA,-33.0117,17.9442,68.05,80,6,9.93,clear sky
254,Nortelandia,BR,-14.4547,-56.8028,101.7,23,18,6.24,few clouds
255,Vestmanna,FO,62.1564,-7.1664,49.12,100,90,20.71,overcast clouds
256,Buchanan,LR,5.8808,-10.0467,85.96,80,77,6.58,broken clouds
257,Vila Franca Do Campo,PT,37.7167,-25.4333,75.61,80,68,2.57,broken clouds
258,Bordighera,IT,43.7806,7.6645,77.29,58,13,1.99,few clouds
259,La Baneza,ES,42.3003,-5.8977,69.6,44,40,5.97,scattered clouds
260,Esperance,AU,-33.8667,121.9,57.04,88,4,6.67,clear sky
261,Inta,RU,66.0317,60.1659,36.19,74,81,7.14,broken clouds
262,Auki,SB,-8.7676,160.7034,77.49,86,93,4.23,overcast clouds
263,Ayan,RU,56.45,138.1667,47.23,88,55,9.84,light rain
264,Sao Joao Da Barra,BR,-21.6403,-41.0511,75.29,65,22,19.55,few clouds
265,Acapulco,MX,16.8634,-99.8901,84.67,71,51,5.06,broken clouds
266,Xai-Xai,MZ,-25.0519,33.6442,68.77,82,52,7.9,broken clouds
267,Leningradskiy,RU,69.3833,178.4167,23.95,94,100,14.5,light snow
268,Sharan,RU,54.8167,54.0,41.97,83,100,6.73,overcast clouds
269,Ulaanbaatar,MN,47.9077,106.8832,21.33,79,0,0.0,clear sky
270,Sembe,CG,1.6481,14.5806,71.56,98,100,3.42,moderate rain
271,Barao De Melgaco,BR,-16.1944,-55.9675,102.72,20,27,6.58,scattered clouds
272,Isangel,VU,-19.55,169.2667,72.16,91,94,10.2,overcast clouds
273,West Wendover,US,40.7391,-114.0733,56.41,23,1,0.0,clear sky
274,Bereda,ES,43.2686,-7.5406,70.57,30,59,3.06,broken clouds
275,Tuatapere,NZ,-46.1333,167.6833,47.82,88,88,4.27,overcast clouds
276,Saint-Augustin,CA,51.226,-58.6502,43.95,90,100,25.52,overcast clouds
277,Thap Than,TH,15.4606,99.8917,78.1,90,43,4.79,light rain
278,Raga,SS,8.4596,25.678,77.72,65,46,3.98,scattered clouds
279,Port Macquarie,AU,-31.4333,152.9167,58.96,79,97,8.93,overcast clouds
280,Narsaq,GL,60.9167,-46.05,39.42,33,0,2.55,clear sky
281,Tabou,CI,4.423,-7.3528,77.81,85,71,7.56,broken clouds
282,Miandrivazo,MG,-19.5167,45.4667,81.03,56,42,4.21,scattered clouds
283,Carnarvon,AU,-24.8667,113.6333,69.87,88,34,6.91,scattered clouds
284,Muros,ES,42.7762,-9.0603,68.5,67,50,9.91,scattered clouds
285,Samarai,PG,-10.6167,150.6667,79.43,86,90,6.6,overcast clouds
286,Canico,PT,32.6333,-16.85,77.72,68,20,21.85,few clouds
287,Thompson,CA,55.7435,-97.8558,59.16,67,40,4.61,scattered clouds
288,San Jose,US,37.3394,-121.895,81.52,43,1,0.0,clear sky
289,The Pas,CA,53.8251,-101.2541,60.82,63,1,3.44,clear sky
290,Mtwara,TZ,-10.2667,40.1833,75.81,83,9,6.85,clear sky
291,Berlevag,NO,70.8578,29.0864,46.4,83,57,12.08,broken clouds
292,Korla,CN,41.7597,86.1469,68.18,20,0,4.7,clear sky
293,Sisimiut,GL,66.9395,-53.6735,35.71,73,96,3.67,overcast clouds
294,Geraldton,AU,-28.7667,114.6,64.81,68,40,5.75,light rain
295,Bani Walid,LY,31.7566,13.9942,74.46,58,0,14.83,clear sky
296,Pontianak,ID,-0.0333,109.3333,75.18,100,90,3.44,overcast clouds
297,Scottsbluff,US,41.8666,-103.6672,60.82,54,90,6.91,overcast clouds
298,Pochutla,MX,15.7432,-96.4661,89.82,59,79,6.29,broken clouds
299,La Union,PE,-5.4,-80.75,85.01,35,99,13.65,overcast clouds
300,Tokur,RU,53.1333,132.9,32.02,99,100,3.18,light snow
301,Nerchinskiy Zavod,RU,51.3088,119.61,28.44,87,85,3.36,overcast clouds
302,Ancud,CL,-41.8697,-73.8203,51.33,51,66,10.2,broken clouds
303,Chutove,UA,49.7104,35.1603,47.01,53,2,7.43,clear sky
304,Turukhansk,RU,65.8167,87.9833,33.93,83,98,7.36,overcast clouds
305,La Ronge,CA,55.1001,-105.2842,61.05,44,20,12.66,few clouds
306,Afua,BR,-0.1567,-50.3867,92.57,45,22,9.33,few clouds
307,Almeirim,BR,-1.5233,-52.5817,92.79,44,35,3.09,scattered clouds
308,Atherton,GB,53.5237,-2.4935,59.79,96,100,1.99,overcast clouds
309,Clarence Town,AU,-32.5833,151.7833,63.81,82,100,2.62,overcast clouds
310,Okha,RU,53.5739,142.9478,49.87,93,100,1.5,overcast clouds
311,Oksfjord,NO,70.2396,22.3479,46.47,79,25,6.62,scattered clouds
312,Pulwama,IN,33.874,74.8996,64.36,68,4,1.14,clear sky
313,Mezen,RU,65.8522,44.24,44.69,94,100,3.4,overcast clouds
314,Illapel,CL,-31.6308,-71.1653,69.58,25,0,9.51,clear sky
315,Rawson,AR,-43.3002,-65.1023,66.09,24,6,24.87,clear sky
316,Pasighat,IN,28.0667,95.3333,75.58,92,9,2.39,clear sky
317,Puro,PH,12.4841,123.3827,81.32,83,86,6.6,overcast clouds
318,Dingle,PH,10.9995,122.6711,76.28,91,50,2.46,scattered clouds
319,Moosomin,CA,50.1333,-101.6677,68.11,27,82,4.81,broken clouds
320,Bambanglipuro,ID,-7.95,110.2833,62.6,87,52,4.12,broken clouds
321,Cochrane,CA,51.1834,-114.4687,66.42,60,90,4.61,overcast clouds
322,Wanning,CN,18.8003,110.3967,77.4,84,5,4.79,clear sky
323,Payo,ID,-3.7508,103.6372,71.42,96,100,2.66,light rain
324,Birsk,RU,55.4211,55.5428,38.77,84,99,5.86,overcast clouds
325,Aklavik,CA,68.2191,-135.0107,22.03,93,78,1.74,broken clouds
326,Cabedelo,BR,-6.9811,-34.8339,84.87,71,24,12.48,few clouds
327,Lasa,IT,46.6166,10.7002,60.71,91,64,2.08,broken clouds
328,Salym,RU,60.0625,71.4789,35.24,97,97,7.47,light rain
329,Zhigansk,RU,66.7697,123.3711,27.39,72,48,2.26,scattered clouds
330,Marogong,PH,7.6667,124.15,72.68,91,91,2.51,overcast clouds
331,Lethem,GY,3.3803,-59.7968,94.98,40,34,3.36,scattered clouds
332,Kolyvan,RU,55.3053,82.7391,39.06,95,100,4.79,overcast clouds
333,Sao Joao De Pirabas,BR,-0.7747,-47.1772,85.71,64,42,7.78,scattered clouds
334,Mglin,RU,53.0591,32.8475,43.12,75,100,4.14,overcast clouds
335,Pitimbu,BR,-7.4706,-34.8086,84.79,74,44,11.74,scattered clouds
336,Port Blair,IN,11.6667,92.75,81.43,83,100,7.99,overcast clouds
337,Watertown,US,42.3709,-71.1828,61.86,61,75,1.99,broken clouds
338,Katsuura,JP,35.1333,140.3,70.2,88,100,17.27,heavy intensity rain
339,Grindavik,IS,63.8424,-22.4338,45.07,70,0,14.97,clear sky
340,Awbari,LY,26.5921,12.7805,82.67,27,0,7.85,clear sky
341,Macaubas,BR,-13.0194,-42.6986,96.19,16,26,4.81,scattered clouds
342,Badnawar,IN,23.0167,75.2167,77.67,81,97,2.98,overcast clouds
343,Tasiilaq,GL,65.6145,-37.6368,39.36,88,2,10.02,clear sky
344,Ishinomaki,JP,38.4167,141.3,69.94,93,100,9.31,light rain
345,Varadero,CU,23.1536,-81.2514,84.96,69,51,12.41,broken clouds
346,Ridgecrest,US,35.6225,-117.6709,77.02,10,1,1.99,clear sky
347,Moron,AR,-34.6534,-58.6198,62.35,98,99,1.01,moderate rain
348,Kulhudhuffushi,MV,6.6221,73.07,82.4,76,80,11.86,broken clouds
349,Meuselwitz,DE,51.05,12.3,54.16,79,85,5.95,overcast clouds
350,Whitehorse,CA,60.7161,-135.0538,34.57,93,90,0.0,light snow
351,Isla Mujeres,MX,21.2311,-86.731,84.16,69,9,9.66,clear sky
352,Bonthe,SL,7.5264,-12.505,80.22,82,72,10.36,broken clouds
353,Bitung,ID,1.4451,125.1824,76.05,81,69,5.21,moderate rain
354,Klaksvik,FO,62.2266,-6.589,50.92,97,100,27.78,overcast clouds
355,Almaty,KZ,43.25,76.95,58.91,59,75,6.71,broken clouds
356,Tecoanapa,MX,16.5167,-98.75,85.39,68,30,6.78,scattered clouds
357,Ranfurly,NZ,-45.1333,170.1,26.06,92,2,2.91,clear sky
358,Bubaque,GW,11.2833,-15.8333,82.89,75,23,10.71,few clouds
359,Victoria,HK,22.2855,114.1577,86.38,86,1,1.99,light rain
360,Cuamba,MZ,-14.8031,36.5372,81.66,34,100,4.47,overcast clouds
361,Sept-Iles,CA,50.2001,-66.3821,48.72,91,90,3.0,moderate rain
362,Waingapu,ID,-9.6567,120.2641,77.2,82,81,6.13,broken clouds
363,Tazovskiy,RU,67.4667,78.7,33.39,98,100,15.12,light snow
364,Griffith,US,41.5284,-87.4237,83.3,50,1,1.01,clear sky
365,Mehamn,NO,71.0357,27.8492,46.35,71,75,9.22,broken clouds
366,Kutum,SD,14.2,24.6667,83.59,19,2,13.89,clear sky
367,Kenai,US,60.5544,-151.2583,21.29,86,1,4.61,clear sky
368,Ulladulla,AU,-35.35,150.4667,59.9,86,96,4.09,overcast clouds
369,Pacific Grove,US,36.6177,-121.9166,80.8,55,1,1.01,clear sky
370,Hervey Bay,AU,-25.2986,152.8535,66.04,83,99,9.6,overcast clouds
371,Torbay,CA,47.6666,-52.7314,63.75,98,90,8.05,mist
372,Jardim,BR,-21.4803,-56.1381,107.06,15,6,9.04,clear sky
373,Lebu,CL,-37.6167,-73.65,54.48,58,62,11.23,broken clouds
374,Ylojarvi,FI,61.5563,23.5961,46.94,77,0,9.22,clear sky
375,Laguna,US,38.421,-121.4238,80.22,41,1,1.01,clear sky
376,Byron Bay,AU,-28.65,153.6167,65.05,90,100,13.8,overcast clouds
377,Astoria,US,46.1879,-123.8313,59.88,96,90,3.0,mist
378,Victor Harbor,AU,-35.5667,138.6167,55.8,95,100,1.99,overcast clouds
379,Maniitsoq,GL,65.4167,-52.9,35.33,53,21,3.0,few clouds
380,Malegaon,IN,20.55,74.5333,77.7,80,100,5.26,overcast clouds
381,Necochea,AR,-38.5473,-58.7368,59.04,92,100,4.79,overcast clouds
382,Svetlogorsk,BY,52.6333,29.7333,43.79,77,12,6.71,few clouds
383,Ust-Tsilma,RU,65.441,52.1498,39.11,85,99,2.77,overcast clouds
384,Jumla,NP,29.2747,82.1838,60.53,92,77,0.89,broken clouds
385,Amahai,ID,-3.3333,128.9167,77.14,90,99,4.74,light rain
386,Tiznit,MA,29.5833,-9.5,93.9,8,0,5.41,clear sky
387,Sitka,US,57.0531,-135.33,48.09,87,90,4.61,moderate rain
388,Tahta,EG,26.7693,31.5021,86.32,28,0,13.58,clear sky
389,Tynda,RU,55.1667,124.7167,28.36,85,100,4.43,overcast clouds
390,Kendari,ID,-3.945,122.4989,74.95,95,44,2.17,scattered clouds
391,Tefe,BR,-3.3542,-64.7114,91.51,62,20,1.7,few clouds
392,Cockburn Town,TC,21.4612,-71.1419,82.44,71,10,6.22,clear sky
393,Roros,NO,62.5747,11.3842,44.44,76,90,14.97,overcast clouds
394,Shalinskoye,RU,55.7228,93.7594,40.32,90,94,4.34,light rain
395,Nosy Varika,MG,-20.5833,48.5333,70.23,86,0,7.58,clear sky
396,Nara,JP,34.6851,135.8049,75.9,73,100,4.52,overcast clouds
397,Fort-Shevchenko,KZ,44.5086,50.263,54.75,58,10,16.62,clear sky
398,Tignere,CM,7.3667,12.65,67.23,93,99,1.61,light rain
399,Orel,RU,52.9658,36.0803,44.78,77,4,4.94,clear sky
400,Bowen,AU,-20.0167,148.2333,62.82,78,93,4.41,overcast clouds
401,Greenwood,US,34.1668,-82.1165,86.5,59,1,0.0,clear sky
402,Nyurba,RU,63.2842,118.3319,26.19,88,20,3.09,few clouds
403,Karoi,ZW,-16.8099,29.6925,76.24,39,51,9.82,broken clouds
404,Vrangel,RU,42.7297,133.0839,60.15,67,19,5.3,few clouds
405,Scarborough,GB,54.2797,-0.4044,60.51,91,100,4.0,moderate rain
406,Aden,YE,12.7794,45.0367,88.3,64,16,8.14,few clouds
407,Nicolas Bravo,MX,18.45,-88.9167,91.0,45,40,5.7,scattered clouds
408,Macheng,CN,31.1783,115.0319,68.56,83,0,2.44,light rain
409,Lavrentiya,RU,65.5833,-171.0,30.13,83,45,14.97,scattered clouds
410,Craig,US,40.5153,-107.5464,60.17,81,90,4.61,overcast clouds
411,Natitingou,BJ,10.3042,1.3796,78.85,85,100,2.53,overcast clouds
412,Mumford,GH,5.2618,-0.759,77.97,88,100,11.36,light rain
413,Luxor,EG,25.6989,32.6421,89.65,25,0,9.22,clear sky
414,Corinto,GR,37.9407,22.9573,70.9,54,37,1.01,scattered clouds
415,Talaya,RU,61.3833,152.75,23.38,92,100,2.42,light snow
416,Danjiangkou,CN,32.5428,111.5086,71.46,73,0,2.66,light rain
417,Matale,LK,7.4721,80.6234,72.0,96,97,3.18,heavy intensity rain
418,Nushki,PK,29.5542,66.0215,82.98,36,40,3.27,scattered clouds
419,Miraflores,MX,19.2167,-98.8083,69.03,65,69,2.57,broken clouds
420,San Quintin,MX,30.4833,-115.95,71.96,64,0,7.07,clear sky
421,Hobyo,SO,5.3505,48.5268,78.78,87,93,22.06,overcast clouds
422,Mana,GF,5.6592,-53.7767,83.61,72,47,10.31,scattered clouds
423,Novikovo,RU,51.1537,37.8879,45.84,63,2,5.17,clear sky
424,Wonthaggi,AU,-38.6044,145.5913,56.71,94,100,5.91,moderate rain
425,Haines Junction,CA,60.7522,-137.5108,31.95,86,96,1.14,overcast clouds
426,Torbat-E Jam,IR,35.244,60.6225,66.97,34,0,13.53,clear sky
427,Hirado,JP,33.3597,129.5531,76.35,83,79,18.97,broken clouds
428,Sosnogorsk,RU,63.6023,53.8817,40.5,80,100,6.22,overcast clouds
429,Luau,AO,-10.7073,22.2247,68.92,83,96,6.51,moderate rain
430,Kralendijk,BQ,12.15,-68.2667,91.38,55,40,10.36,scattered clouds
431,Maues,BR,-3.3836,-57.7186,92.05,45,84,2.06,broken clouds
432,Luderitz,NA,-26.6481,15.1594,56.53,95,12,11.3,few clouds
433,Gwadar,PK,25.1216,62.3254,85.82,68,89,17.31,overcast clouds
434,Morro Bay,US,35.3658,-120.8499,86.99,43,0,3.0,clear sky
435,Salinas,US,36.6777,-121.6555,80.73,49,1,12.66,clear sky
436,Sogne,NO,58.0833,7.8167,53.46,86,34,1.97,scattered clouds
437,Harwich,GB,51.9419,1.2844,60.94,82,100,11.99,overcast clouds
438,Biltine,TD,14.5333,20.9167,90.59,17,1,9.15,clear sky
439,Omboue,GA,-1.5746,9.2618,77.2,83,97,9.78,overcast clouds
440,Chingirlau,KZ,51.095,54.0814,42.42,41,85,6.17,overcast clouds
441,Batagay-Alyta,RU,67.8006,130.4114,16.77,80,57,3.2,broken clouds
442,Santa Cruz,BO,-17.8,-63.1667,95.05,43,40,21.85,smoke
443,Grand-Santi,GF,4.25,-54.3833,87.89,55,50,2.66,scattered clouds
444,Batsfjord,NO,70.6345,29.7185,44.82,81,75,13.8,broken clouds
445,Harboore,DK,56.6175,8.1807,52.99,73,97,17.45,overcast clouds
446,Mabaruma,GY,8.2,-59.7833,84.13,79,55,4.03,broken clouds
447,Aguada De Pasajeros,CU,22.385,-80.8508,89.74,48,42,6.73,scattered clouds
448,Ust-Shonosha,RU,61.1531,41.343,44.94,96,34,4.41,scattered clouds
449,Wuda,CN,39.4994,106.7117,64.4,23,1,3.76,clear sky
450,Atar,MR,20.5169,-13.0499,103.8,8,1,11.88,clear sky
451,Eenhana,NA,-17.4667,16.3333,87.55,16,0,8.41,clear sky
452,Joshimath,IN,30.5667,79.5667,68.65,92,97,1.74,overcast clouds
453,Ahuimanu,US,21.4447,-157.8378,76.86,78,40,12.66,light rain
454,Nago,JP,26.5881,127.9761,82.83,82,4,8.99,clear sky
455,Izumo,JP,35.3667,132.7667,73.35,92,63,6.71,broken clouds
456,Coquimbo,CL,-29.9533,-71.3436,64.13,51,0,17.27,clear sky
457,Vestmannaeyjar,IS,63.4427,-20.2734,45.59,65,40,26.46,scattered clouds
458,Sur,OM,22.5667,59.5289,89.01,57,96,7.94,overcast clouds
459,Sabha,LY,27.0377,14.4283,81.79,29,0,11.39,clear sky
460,Yerbogachen,RU,61.2767,108.0108,28.26,89,46,3.74,scattered clouds
461,Palmer,US,42.1584,-72.3287,62.08,57,90,1.01,overcast clouds
462,Ulverstone,AU,-41.15,146.1667,58.19,74,100,10.0,overcast clouds
463,Rocha,UY,-34.4833,-54.3333,65.62,72,85,15.23,overcast clouds
464,Deniliquin,AU,-35.5333,144.9667,53.01,94,6,4.07,clear sky
465,Talnakh,RU,69.4865,88.3972,31.03,98,100,6.78,light snow
466,Bulungu,CD,-4.55,18.6,73.0,90,84,6.06,broken clouds
467,Jamame,SO,0.0722,42.7506,76.93,86,42,10.29,scattered clouds
468,Harare,ZW,-17.8294,31.0539,69.82,58,95,13.2,overcast clouds
469,Maceio,BR,-9.6658,-35.7353,83.64,83,75,11.5,broken clouds
470,Boa Vista,BR,2.8197,-60.6733,93.18,43,75,12.66,broken clouds
471,Chara,RU,56.9064,118.2631,27.39,71,74,2.37,broken clouds
472,Mahibadhoo,MV,3.7833,72.9667,82.49,69,95,8.48,overcast clouds
473,Emerald,AU,-23.5333,148.1667,67.98,80,75,19.57,thunderstorm
474,Mwanza,TZ,-2.5167,32.9,76.6,64,80,6.49,broken clouds
475,Kolosovka,RU,56.4678,73.611,38.14,78,100,7.72,overcast clouds
476,Potam,MX,27.6,-110.3833,87.93,41,0,6.82,clear sky
477,Tabuk,PH,17.4189,121.4443,74.64,93,97,2.28,overcast clouds
478,Broome,US,42.2506,-75.833,61.02,66,75,3.0,broken clouds
479,Angoram,PG,-4.0625,144.0661,74.01,100,100,2.28,light rain
480,Saint-Ambroise,CA,48.5501,-71.3324,55.89,71,91,8.05,overcast clouds
481,Soyo,AO,-6.1349,12.3689,80.65,81,97,8.9,overcast clouds
482,Kandrian,PG,-6.2167,149.55,76.62,92,97,2.42,light rain
483,Mayumba,GA,-3.432,10.6554,76.3,84,82,7.4,broken clouds
484,Turan,VN,16.0678,108.2208,80.65,83,20,1.14,few clouds
485,Nampula,MZ,-15.1165,39.2666,80.55,54,20,12.66,few clouds
486,Romny,UA,50.751,33.4747,45.99,60,34,6.26,scattered clouds
487,Vao,NC,-22.6667,167.4833,70.66,81,60,21.94,broken clouds
488,La Asuncion,VE,11.0333,-63.8628,92.93,46,48,11.5,scattered clouds
489,Vorchdorf,AT,48.0039,13.9212,54.75,79,95,3.06,overcast clouds
490,Hanna,CA,51.6334,-111.9018,68.02,37,13,18.01,few clouds
491,Halden,NO,59.1226,11.3871,54.61,92,61,6.49,broken clouds
492,Lagoa Formosa,BR,-18.7786,-46.4075,92.01,33,49,7.72,scattered clouds
493,Tura,IN,25.5198,90.2201,73.47,93,99,1.43,overcast clouds
494,Grand Gaube,MU,-20.0064,57.6608,72.37,73,6,5.99,clear sky
495,East Wenatchee Bench,US,47.4257,-120.2812,62.38,58,1,3.44,clear sky
496,Linhai,CN,28.85,121.1167,67.01,95,0,1.88,light rain
497,Fare,PF,-16.7,-151.0167,78.44,74,0,18.68,clear sky
498,Angoche,MZ,-16.2325,39.9086,76.46,81,0,6.78,clear sky
499,Omsukchan,RU,62.5333,155.8,21.76,79,100,6.49,overcast clouds
500,Atambua,ID,-9.1061,124.8925,71.82,85,32,3.36,scattered clouds
501,Oriximina,BR,-1.7656,-55.8661,93.34,43,65,3.2,broken clouds
502,Bolgatanga,GH,10.7856,-0.8514,83.57,65,94,6.38,overcast clouds
503,Port Hedland,AU,-20.3167,118.5667,64.45,94,5,0.0,clear sky
504,Rupert,US,42.6191,-113.6772,55.65,43,0,3.44,clear sky
505,Burg,DE,51.8333,14.15,54.07,70,91,6.6,overcast clouds
506,Kindu,CD,-2.95,25.95,74.14,87,92,2.98,overcast clouds
507,Riachao,BR,-7.3619,-46.6172,93.38,31,73,6.53,light rain
508,Aygedzor,AM,38.9785,46.2079,59.49,93,88,8.9,overcast clouds
509,Itoman,JP,26.1247,127.6694,82.78,83,20,14.97,few clouds
510,Killam,CA,52.7834,-111.8518,63.99,41,65,12.66,broken clouds
511,Marawi,PH,7.9986,124.2928,66.65,92,91,2.57,overcast clouds
512,Zaysan,KZ,47.4667,84.8667,54.54,74,100,6.44,light rain
513,Itarema,BR,-2.9248,-39.9167,85.84,62,15,18.95,few clouds
514,Baicheng,CN,45.6167,122.8167,42.3,61,42,7.99,scattered clouds
515,Yangjiang,CN,21.85,111.9667,78.94,88,5,4.03,light rain
516,Gouyave,GD,12.1646,-61.7296,84.97,66,20,11.5,few clouds
517,Aykhal,RU,66.0,111.5,28.96,60,61,5.68,broken clouds
518,Tutoia,BR,-2.7619,-42.2744,87.78,69,29,9.15,scattered clouds
519,Myrtle Beach,US,33.6891,-78.8867,87.28,75,1,8.05,clear sky
520,San Vicente,AR,-26.6167,-54.1333,93.34,27,36,6.8,scattered clouds
521,Staraya Kulatka,RU,52.7167,47.6167,45.45,63,100,3.71,overcast clouds
522,Concepcion,CL,-36.827,-73.0498,58.8,51,20,9.22,few clouds
523,Sabancuy,MX,18.9667,-91.1833,92.14,45,17,1.45,few clouds
524,Jinchang,CN,38.4953,102.1739,62.96,23,63,5.23,broken clouds
525,Laibin,CN,23.7,109.2667,82.87,69,55,5.53,light rain
526,Gat,IL,31.61,34.7642,77.68,100,0,5.73,clear sky
527,Markova,UA,48.6758,24.4138,53.19,70,100,1.25,overcast clouds
528,Mizan Teferi,ET,6.9833,35.5833,62.42,93,96,2.73,light rain
529,Savinka,RU,50.0785,47.0994,46.45,53,60,6.49,broken clouds
530,Longyan,CN,25.1072,117.0225,73.17,93,16,1.3,light rain
531,Juneau,US,58.3019,-134.4197,47.84,96,90,0.0,light rain
532,Blagoyevo,RU,63.3667,47.9167,44.38,96,100,4.16,overcast clouds
533,Kupang,ID,-10.1667,123.5833,77.05,81,29,6.49,scattered clouds
534,Atasu,KZ,48.6814,71.6433,39.16,75,97,12.39,overcast clouds
535,Urengoy,RU,65.9667,78.3667,32.47,98,98,10.85,overcast clouds
536,Naze,JP,28.3667,129.4833,76.21,79,2,7.25,clear sky
537,Marienburg,PL,54.0359,19.0266,54.88,62,76,7.25,broken clouds
538,Sioux Lookout,CA,50.1001,-91.917,73.47,60,75,5.75,broken clouds
539,Piranhas,BR,-16.4269,-51.8222,100.45,22,28,7.65,scattered clouds
540,Bonavista,CA,48.6499,-53.1147,56.12,99,100,9.08,light rain
541,Boulder City,US,35.9786,-114.8325,73.72,12,1,18.41,clear sky
542,Saint-Pierre,RE,-21.3393,55.4781,73.08,74,90,3.44,overcast clouds
543,Diu,IN,20.7141,70.9822,80.62,87,100,12.48,overcast clouds
544,Ballitoville,ZA,-29.539,31.2144,67.24,77,0,14.97,clear sky
545,Tawau,MY,4.2498,117.8871,77.13,94,95,3.85,overcast clouds
546,Ahipara,NZ,-35.1667,173.1667,55.04,82,87,8.1,overcast clouds
547,Karangampel,ID,-6.4622,108.4519,78.98,81,18,3.29,few clouds
548,Ipanema,BR,-30.1391,-51.2244,78.28,65,0,19.57,heavy intensity rain
549,Pevek,RU,69.7008,170.3133,27.43,88,100,13.76,light snow
550,Jaisalmer,IN,26.9147,70.9181,86.09,59,97,12.26,light rain
551,Nyrob,RU,60.733,56.7202,43.27,94,100,6.44,overcast clouds
552,Xinan,CN,26.72,119.8556,77.02,89,49,3.87,scattered clouds
553,Fairbanks,US,64.8378,-147.7164,26.82,81,75,1.14,broken clouds
554,Mogadishu,SO,2.0371,45.3438,78.42,86,90,13.47,overcast clouds
555,Tena,EC,-0.9833,-77.8167,84.36,43,92,2.73,overcast clouds
556,Rosetta,EG,31.4044,30.4164,76.82,73,0,13.87,clear sky
557,Saint Anthony,US,45.0205,-93.218,82.26,60,1,5.01,clear sky
558,Sobolevo,RU,54.4299,31.8996,42.03,81,79,5.41,broken clouds
559,Bull Savanna,JM,17.8868,-77.5902,84.79,59,2,7.87,clear sky
560,Basoko,CD,1.2391,23.616,72.01,87,94,4.29,overcast clouds
561,Xuddur,SO,4.1213,43.8894,80.51,57,93,16.37,overcast clouds
562,California City,US,35.1258,-117.9859,78.35,11,1,5.01,clear sky
563,Great Yarmouth,GB,52.6083,1.7305,59.95,81,100,23.29,light rain
564,Nantong,CN,32.0303,120.8747,72.0,84,0,3.51,light rain
565,Lianzhou,CN,24.7811,112.3825,75.81,91,19,2.15,light rain
566,Tigil,RU,57.8,158.6667,36.01,73,100,11.63,light rain
567,Helong,CN,42.5397,128.9972,55.78,88,100,2.95,overcast clouds
568,Ternate,ID,0.8,127.4,80.11,81,46,2.91,scattered clouds
569,Imphal,IN,24.8167,93.95,69.17,97,98,1.99,overcast clouds
570,Kharan,PK,28.5833,65.4167,88.75,31,61,4.76,broken clouds
571,Guayaramerin,BO,-10.8368,-65.3614,93.25,49,20,8.05,few clouds
572,Teofilo Otoni,BR,-17.8575,-41.5053,88.9,29,76,6.76,broken clouds
573,Spearfish,US,44.4908,-103.8594,60.66,34,90,3.0,overcast clouds
574,Ixtapa,MX,20.7,-105.2,84.22,80,29,4.0,scattered clouds
575,Avera,US,33.194,-82.5271,87.67,42,96,4.63,overcast clouds
576,Maryville,US,35.7565,-83.9705,85.26,66,75,1.99,broken clouds
577,Pimentel,PE,-6.8367,-79.9342,73.69,60,0,9.22,clear sky
578,Mormugao,IN,15.4,73.8,79.2,82,34,0.4,scattered clouds
579,Kaeo,NZ,-35.1,173.7833,54.32,93,81,5.44,broken clouds
580,Juegang,CN,32.3174,121.1855,69.91,85,0,3.69,clear sky
581,Ovsyanka,RU,55.9575,92.5519,43.77,94,94,3.94,overcast clouds
582,Kemise,ET,10.7167,39.8667,71.69,50,80,4.76,broken clouds
583,Tsaratanana,MG,-16.7833,47.65,71.35,57,0,10.6,clear sky
584,Puerto Palomas,MX,31.7667,-107.6167,63.73,62,98,13.42,overcast clouds
585,Muzaffargarh,PK,30.0754,71.1921,91.42,46,33,7.81,scattered clouds
586,Semporna,MY,4.4818,118.6112,77.2,83,91,2.08,overcast clouds
587,Havelock,US,34.8791,-76.9013,79.99,61,1,5.01,clear sky
588,Port Hardy,CA,50.6996,-127.4199,51.98,100,75,0.0,light intensity shower rain
589,Ambulu,ID,-8.345,113.6058,74.75,90,37,1.95,scattered clouds
590,Tarakan,ID,3.3,117.6333,78.3,94,20,3.44,few clouds
591,Luganville,VU,-15.5333,167.1667,77.09,88,83,10.56,broken clouds
592,Rongai,KE,-0.1733,35.8638,64.26,66,95,3.42,overcast clouds
593,Ocos,GT,14.5094,-92.1933,90.73,71,18,5.82,few clouds
594,Yanji,CN,42.9075,129.5078,57.36,74,98,4.21,overcast clouds
595,Karratha,AU,-20.7377,116.8463,73.71,71,7,12.17,clear sky
596,Perth,AU,-31.9333,115.8333,60.98,91,0,10.36,clear sky
597,Eureka,US,40.8021,-124.1637,63.19,70,27,1.99,scattered clouds
598,Labuan,MY,5.2767,115.2417,77.36,94,40,0.0,scattered clouds
599,Manicore,BR,-5.8092,-61.3003,93.6,44,99,3.24,overcast clouds
600,Dudinka,RU,69.4058,86.1778,29.64,98,99,6.42,light snow
601,Dombarovskiy,RU,50.7587,59.5386,39.97,51,33,5.26,scattered clouds
602,Yuncheng,CN,35.0231,110.9928,69.66,71,44,0.78,light rain
603,Bongaigaon,IN,26.4782,90.5568,77.2,89,100,3.87,overcast clouds
604,Finote Selam,ET,10.7,37.2667,56.68,93,59,3.89,broken clouds
605,Rudnogorsk,RU,57.2639,103.7519,30.31,89,99,2.51,overcast clouds
606,Evensk,RU,61.95,159.2333,31.23,38,98,8.77,overcast clouds
607,Mildura,AU,-34.2,142.15,55.36,100,90,10.36,light rain
608,Eyl,SO,7.9803,49.8164,78.87,81,65,19.28,broken clouds
609,Coihaique,CL,-45.5752,-72.0662,50.61,61,75,5.75,broken clouds
610,Beloha,MG,-25.1667,45.05,70.36,88,3,8.28,clear sky
611,Shizunai,JP,42.3339,142.3669,62.22,87,93,9.17,overcast clouds
612,Begunitsy,RU,59.5855,29.3176,41.29,85,15,5.64,few clouds
613,Orange,US,33.7,-117.7675,89.51,43,1,0.0,clear sky
614,Naryan-Mar,RU,67.6713,53.087,34.92,79,100,5.68,overcast clouds
615,Banda Aceh,ID,5.5577,95.3222,78.66,85,100,10.31,overcast clouds
616,Chisindia,RO,46.2833,22.1,57.99,94,100,2.57,overcast clouds
617,Presidente Medici,BR,-11.1753,-61.9014,97.99,29,70,7.36,broken clouds
618,Porto Walter,BR,-8.2686,-72.7439,94.21,38,99,3.71,overcast clouds
619,Visby,SE,57.6409,18.296,54.95,87,75,11.5,broken clouds
620,Natal,BR,-5.795,-35.2094,86.65,70,40,16.11,scattered clouds
621,Zapolyarnyy,RU,69.4154,30.8136,42.08,87,100,8.57,overcast clouds
622,Bac Lieu,VN,9.285,105.7244,80.31,82,84,3.78,broken clouds
623,Dongsheng,CN,39.8161,109.9776,55.22,32,27,4.05,scattered clouds
624,Walla Walla,US,46.0646,-118.343,75.67,38,1,1.99,clear sky
625,Cervo,ES,43.6702,-7.4101,74.19,79,70,2.35,broken clouds
626,Kuytun,RU,54.3419,101.5036,30.94,82,16,4.47,few clouds
627,Barabai,ID,-2.5833,115.3833,75.34,96,62,1.59,broken clouds
628,Poum,NC,-20.2333,164.0167,72.7,80,42,11.88,scattered clouds
629,Djibo,BF,14.1022,-1.6306,93.15,36,92,10.02,overcast clouds
630,Kostomuksha,RU,64.571,30.5767,41.45,78,94,4.34,overcast clouds
631,Risod,IN,19.9667,76.7833,75.22,84,43,3.56,scattered clouds
632,Cherepanovo,RU,54.2222,83.381,37.22,94,100,5.41,overcast clouds
633,Nahariyya,IL,33.0059,35.0941,78.71,79,0,4.68,clear sky
634,Birjand,IR,32.8663,59.2211,73.87,16,0,11.5,clear sky
635,Sorong,ID,-0.8833,131.25,80.4,80,100,3.4,overcast clouds
636,Xucheng,CN,20.35,110.1288,75.9,80,4,5.57,light rain
637,Hammerfest,NO,70.6634,23.6821,39.65,93,15,0.0,fog
638,Panama City,PA,8.9936,-79.5197,85.42,79,20,9.22,few clouds
639,Port-Gentil,GA,-0.7193,8.7815,78.76,89,75,16.11,broken clouds
640,Coahuayana,MX,18.7333,-103.6833,87.8,63,100,3.96,overcast clouds
641,Safaga,EG,26.7292,33.9365,84.15,32,0,17.13,clear sky
642,Lewistown,US,40.5992,-77.5714,67.06,53,75,6.91,broken clouds
643,Hami,CN,42.8,93.45,66.99,26,53,9.53,broken clouds
644,Srednekolymsk,RU,67.45,153.6833,14.79,90,6,6.58,clear sky
645,Ratnagiri,IN,16.9833,73.3,77.9,88,99,4.41,overcast clouds
646,Jertih,MY,5.7336,102.4897,76.91,92,98,3.94,overcast clouds
647,Troitskoye,RU,52.9821,84.6757,41.13,82,100,4.0,overcast clouds
648,Mujiayingzi,CN,42.1167,118.7833,49.3,62,2,2.55,clear sky
649,Zhangye,CN,38.9342,100.4517,62.44,20,57,6.24,broken clouds
650,Nanchang,CN,28.6833,115.8833,72.77,73,0,2.73,light rain
651,Ulaangom,MN,49.9811,92.0667,39.56,67,46,2.8,scattered clouds
652,Katobu,ID,-4.9408,122.5276,74.88,94,73,2.71,broken clouds
653,Wuzhou,CN,23.4833,111.3167,81.81,72,60,1.77,light rain
654,Cacu,BR,-18.5567,-51.1308,99.66,20,50,3.96,scattered clouds
655,Opuwo,NA,-18.0607,13.84,76.23,16,2,13.15,clear sky
656,Carlisle,US,40.2015,-77.1889,69.89,59,8,1.01,clear sky
657,Saint-Francois,FR,46.4154,3.9054,60.24,55,0,2.3,clear sky
658,Promyshlennyy,RU,67.5833,63.9167,33.3,88,98,13.98,overcast clouds
659,Henties Bay,NA,-22.116,14.2845,57.85,87,58,11.01,broken clouds
660,Makakilo City,US,21.3469,-158.0858,75.69,76,1,5.75,clear sky
661,Airai,TL,-8.9266,125.4092,58.75,69,36,2.42,scattered clouds
662,Morondava,MG,-20.2833,44.2833,77.43,81,3,15.66,clear sky
663,Chichihualco,MX,17.6833,-99.65,76.39,70,49,2.53,scattered clouds
664,Tara,RU,56.8944,74.371,38.86,81,100,5.59,overcast clouds
665,Brae,GB,60.3964,-1.353,53.51,95,100,19.24,overcast clouds
666,Viedma,AR,-40.8135,-62.9967,69.71,20,1,19.28,clear sky
667,Shimoda,JP,34.6667,138.95,73.51,91,100,23.49,heavy intensity rain
668,Domoni,KM,-12.2569,44.5319,75.85,86,51,5.17,broken clouds
669,Brejo,BR,-3.6844,-42.7503,93.69,38,48,2.1,moderate rain
670,Lincoln,US,40.8,-96.667,79.7,82,90,4.0,overcast clouds
671,Mastung,PK,29.7994,66.845,74.75,50,11,7.67,few clouds
672,Plettenberg Bay,ZA,-34.0527,23.3716,59.77,94,98,9.55,light rain
673,Baragua,CU,21.6967,-78.6328,86.52,62,69,7.2,broken clouds
674,Atyashevo,RU,54.5644,46.0691,44.15,78,100,7.11,overcast clouds
675,Sembakung,ID,3.8167,117.25,78.73,97,100,2.08,overcast clouds
676,Xingcheng,CN,40.6167,120.7167,56.66,80,45,13.09,light rain
677,Florianopolis,BR,-27.6146,-48.5012,68.43,84,90,1.01,overcast clouds
678,Macenta,GN,8.5435,-9.471,77.77,77,25,2.84,light rain
679,Ponto Novo,BR,-10.8628,-40.1336,94.78,22,16,7.16,few clouds
680,Emba,KZ,48.8264,58.1442,42.44,54,49,5.08,scattered clouds
681,Husavik,IS,66.0449,-17.3389,42.71,84,100,10.92,overcast clouds
682,Bucak,TR,37.4592,30.595,66.24,60,64,5.48,broken clouds
683,Martapura,ID,-3.4167,114.85,78.89,94,90,3.44,overcast clouds
684,Keuruu,FI,62.2667,24.7,45.55,75,95,7.18,overcast clouds
685,Zaykovo,RU,57.5613,62.7568,39.29,84,71,8.23,broken clouds
686,Tay Ninh,VN,11.3,106.1,77.97,92,97,5.41,overcast clouds
687,Batagay,RU,67.6333,134.6333,22.5,56,21,2.71,few clouds
688,San Joaquin,US,37.9333,-121.3011,79.38,40,1,3.44,clear sky
689,Saint Pete Beach,US,27.7253,-82.7412,90.28,52,9,1.01,clear sky
690,Noshiro,JP,40.2039,140.0242,64.81,92,99,4.29,overcast clouds
691,Simbahan,PH,6.3032,120.5836,83.1,75,90,4.34,overcast clouds
692,Itaituba,BR,-4.2761,-55.9836,95.16,55,20,4.5,few clouds
693,Nemuro,JP,43.3236,145.575,61.02,98,97,5.01,overcast clouds
694,Soyung,PH,16.7001,121.6655,75.0,93,96,2.37,overcast clouds
695,Deputatskiy,RU,69.3,139.9,12.09,85,94,3.47,overcast clouds
696,Ust-Nera,RU,64.5667,143.2,24.06,60,100,5.57,overcast clouds
697,Simeria,RO,45.85,23.0167,58.23,71,100,0.78,overcast clouds
698,Yulara,AU,-25.2406,130.9889,57.04,35,0,4.61,clear sky
699,Russell,US,32.3502,-85.1999,85.15,57,75,3.44,broken clouds
700,Muzhi,RU,65.3667,64.6667,35.11,75,20,13.91,few clouds
701,Piranshahr,IR,36.701,45.1413,60.93,40,0,4.99,clear sky
702,Saint-Georges,GD,12.0564,-61.7485,85.68,66,20,11.5,few clouds
